City,Cloudiness,Country,Date,Humidity,Lat,Lng,Max Temp,Wind Speed
Yulara,40,AU,1603508300,43,-25.24,130.99,21.0,3.6
Ushuaia,75,AR,1603508300,85,-54.8,-68.3,5.0,3.6
Birao,100,CF,1603508301,72,10.28,22.79,24.23,1.41
Geraldton,0,AU,1603508301,16,-28.77,114.6,31.0,5.1
Chapais,90,CA,1603508301,100,49.78,-74.85,1.0,4.1
Atuona,0,PF,1603508301,75,-9.8,-139.03,25.94,8.65
Punta Arenas,75,CL,1603508301,61,-53.15,-70.92,8.0,2.6
Butaritari,7,KI,1603508302,71,3.07,172.79,27.88,4.84
Oktyabr'skoye,0,RU,1603508302,42,43.06,44.74,2.0,3.0
Jamestown,90,US,1603508206,77,42.1,-79.24,17.0,9.8
Kasongo-Lunda,100,CD,1603508302,93,-6.47,16.82,21.05,0.15
Clyde River,90,CA,1603508303,85,70.47,-68.59,-6.0,3.6
Mocuba,14,MZ,1603508303,97,-16.84,36.99,18.36,1.18
Taoudenni,57,ML,1603508303,14,22.68,-3.98,28.99,3.58
Albany,16,US,1603508303,86,42.6,-73.97,17.22,0.89
Carnarvon,0,AU,1603508290,57,-24.87,113.63,25.0,8.7
George Town,20,MY,1603508304,83,5.41,100.34,29.0,2.1
Yellowknife,20,CA,1603508304,73,62.46,-114.35,-5.0,2.6
Tual,11,ID,1603508305,78,-5.67,132.75,28.12,4.08
Mataura,57,NZ,1603508290,51,-46.19,168.86,21.67,5.81
Touros,75,BR,1603508305,94,-5.2,-35.46,25.0,2.1
Mahébourg,40,MU,1603508306,69,-20.41,57.7,23.0,4.6
Tuktoyaktuk,90,CA,1603508306,100,69.45,-133.04,-4.0,1.5
Vila Velha,75,BR,1603508306,94,-20.33,-40.29,21.0,2.1
Neepawa,20,CA,1603508307,85,50.23,-99.47,-11.0,4.1
Rocha,62,UY,1603508307,97,-34.48,-54.33,15.99,1.63
Alice Springs,9,AU,1603508307,38,-23.7,133.88,23.0,3.6
Rikitea,100,PF,1603508307,83,-23.12,-134.97,23.31,7.17
Vaini,75,TO,1603508307,78,-21.2,-175.2,25.0,5.1
Saskylakh,100,RU,1603508308,96,71.92,114.08,-8.46,4.92
Bristol,90,US,1603508308,93,41.83,-71.17,13.89,0.73
Channel-Port aux Basques,5,CA,1603508308,70,47.57,-59.14,6.97,5.05
Faanui,99,PF,1603508308,68,-16.48,-151.75,26.33,2.5
Bluff,100,NZ,1603508308,51,-46.6,168.33,21.67,5.81
Chokurdakh,97,RU,1603508309,93,70.63,147.92,-11.75,3.13
Sterling,1,US,1603508309,82,39.01,-77.43,18.33,2.6
Avera,1,US,1603508309,82,33.19,-82.53,21.0,2.02
Ilulissat,95,GL,1603508309,57,69.22,-51.1,-6.0,3.6
Cape Town,90,ZA,1603508283,100,-33.93,18.42,16.67,3.6
Henties Bay,6,NA,1603508310,93,-22.12,14.28,14.5,3.21
Paamiut,82,GL,1603508310,89,61.99,-49.67,0.31,10.86
Trelleborg,90,SE,1603508310,100,55.38,13.16,12.0,5.1
Faya,0,SA,1603508310,28,18.39,42.45,13.0,2.19
Beihai,100,CN,1603508311,57,21.48,109.1,22.81,5.87
Chui,48,UY,1603508311,98,-33.7,-53.46,16.32,1.72
Port Elizabeth,90,ZA,1603508311,94,-33.92,25.57,20.0,7.7
Tura,100,IN,1603508311,98,25.52,90.22,21.44,1.41
Tuatapere,98,NZ,1603508311,51,-46.13,167.68,21.67,5.81
Yar-Sale,100,RU,1603508312,96,66.83,70.83,-6.07,3.36
Merauke,35,ID,1603508237,68,-8.47,140.33,29.6,3.4
Champerico,100,GT,1603508312,99,14.3,-91.92,19.44,2.53
Upernavik,100,GL,1603508292,90,72.79,-56.15,-5.96,2.82
Arraial do Cabo,40,BR,1603508312,78,-22.97,-42.03,23.0,7.7
Tasiilaq,100,GL,1603508313,91,65.61,-37.64,0.0,1.0
Amapá,1,BR,1603508313,77,1.0,-52.0,23.82,2.11
Castro,100,BR,1603508313,95,-24.79,-50.01,16.07,3.68
Leningradskiy,8,RU,1603508298,91,69.38,178.42,-5.05,2.28
Salinópolis,11,BR,1603508314,81,-0.61,-47.36,26.08,4.73
Mar del Plata,90,AR,1603508314,100,-38.0,-57.56,15.0,1.5
Pevek,18,RU,1603508314,92,69.7,170.31,-3.14,2.03
Port Keats,20,AU,1603508315,56,-14.25,129.55,32.2,4.93
Dikson,100,RU,1603508315,91,73.51,80.55,-4.91,4.77
Cabo San Lucas,5,MX,1603508315,69,22.89,-109.91,27.22,3.6
Port Alfred,97,ZA,1603508292,84,-33.59,26.89,20.9,7.2
Tiksi,24,RU,1603508315,91,71.69,128.87,-7.45,12.8
Bonthe,62,SL,1603508315,84,7.53,-12.51,25.69,1.88
Ponta do Sol,40,PT,1603508316,68,32.67,-17.1,19.0,3.1
Raton,1,US,1603508307,63,36.9,-104.44,-0.56,2.1
Codajás,99,BR,1603508316,96,-3.84,-62.06,23.75,1.2
Coquimbo,26,CL,1603508311,87,-29.95,-71.34,12.0,2.1
Longyearbyen,75,SJ,1603508175,73,78.22,15.64,-5.0,1.0
Batagay-Alyta,8,RU,1603508317,89,67.8,130.41,-6.5,2.95
Oktyabr'skiy,98,RU,1603508317,95,54.48,53.47,7.33,5.34
São João da Barra,84,BR,1603508318,80,-21.64,-41.05,22.66,5.93
Guerrero Negro,0,MX,1603508318,82,27.98,-114.06,19.4,5.37
Rognan,98,NO,1603508318,94,67.1,15.39,1.11,2.34
Bredasdorp,87,ZA,1603508318,93,-34.53,20.04,18.0,2.1
Laguna,1,US,1603508247,52,38.42,-121.42,20.0,3.6
Torbay,75,CA,1603508303,86,47.67,-52.73,3.89,1.0
Avarua,63,CK,1603508319,78,-21.21,-159.78,24.0,4.6
Bereda,95,ES,1603508319,83,43.27,-7.54,12.78,4.47
Xichang,50,CN,1603508319,57,27.9,102.26,16.33,1.23
Qaanaaq,97,GL,1603508319,91,77.48,-69.36,-7.67,3.66
Kahului,40,US,1603508307,55,20.89,-156.47,31.0,3.6
Hohhot,0,CN,1603508320,24,40.81,111.65,9.0,1.0
Springbok,0,ZA,1603508320,39,-29.66,17.89,13.45,0.83
Grand-Santi,26,GF,1603508320,96,4.25,-54.38,22.67,0.99
Chapayevka,100,UA,1603508320,93,47.47,36.35,14.13,3.36
Bubaque,78,GW,1603508321,74,11.28,-15.83,28.68,3.18
Orlik,100,RU,1603508321,75,52.52,99.83,1.02,0.56
Hofn,100,IS,1603508321,88,64.25,-15.21,7.19,10.12
Mawlaik,100,MM,1603508321,94,23.63,94.42,23.9,0.62
Karmāla,25,IN,1603508322,62,18.42,75.2,25.72,2.01
Madzhalis,0,RU,1603508322,35,42.12,47.83,14.78,2.04
Hermanus,71,ZA,1603508322,92,-34.42,19.23,17.78,1.75
Port Augusta,78,AU,1603508322,72,-32.5,137.77,17.0,11.3
Kapaa,9,US,1603508322,59,22.08,-159.32,27.22,2.6
Manta,90,EC,1603508323,78,-0.95,-80.73,23.0,4.1
Busselton,0,AU,1603508280,30,-33.65,115.33,23.33,3.09
Severo-Yeniseyskiy,84,RU,1603508323,97,60.37,93.04,-4.59,1.79
Bilma,0,NE,1603508317,23,18.69,12.92,23.08,7.43
Hobart,75,AU,1603508281,66,-42.88,147.33,15.0,2.6
Kaitangata,2,NZ,1603508324,41,-46.28,169.85,21.49,1.92
São Félix do Xingu,100,BR,1603508324,93,-6.64,-51.99,23.08,0.85
Pangody,96,RU,1603508324,95,65.85,74.49,-10.4,4.3
Coahuayana Viejo,76,MX,1603508324,87,18.73,-103.68,27.03,0.77
Beşikdüzü,0,TR,1603508325,87,41.05,39.23,16.0,3.1
Lüderitz,1,NA,1603508325,80,-26.65,15.16,14.85,3.82
Ubatuba,19,BR,1603508325,78,-23.43,-45.07,20.98,1.13
Cabedelo,75,BR,1603508325,100,-6.98,-34.83,24.0,2.6
Juruti,65,BR,1603508326,69,-2.15,-56.09,26.5,1.24
Saint-Philippe,40,RE,1603508326,73,-21.36,55.77,24.0,3.6
Tynda,0,RU,1603508326,91,55.17,124.72,-1.15,1.74
Khatanga,100,RU,1603508284,97,71.97,102.5,-9.98,5.46
Provideniya,100,RU,1603508280,90,64.38,-173.3,0.87,5.4
Luzhou,90,CN,1603508327,61,28.87,105.44,21.45,1.92
Muzhi,41,RU,1603508327,94,65.37,64.67,-9.11,2.21
Ribeira Grande,42,PT,1603508284,81,38.52,-28.7,19.29,9.15
Xinzhou,0,CN,1603508328,35,38.41,112.73,12.34,0.51
Berlevåg,100,NO,1603508328,93,70.86,29.09,2.71,13.02
Viranşehir,0,TR,1603508108,26,37.24,39.76,18.08,1.8
Sakakah,0,SA,1603508328,18,29.97,40.21,18.0,1.5
New Norfolk,75,AU,1603508329,44,-42.78,147.06,15.0,2.24
Paralímni,0,CY,1603508329,64,35.04,33.98,22.22,3.6
Whitehorse,40,CA,1603508329,72,60.72,-135.05,-11.0,2.6
Kumul,4,CN,1603508291,29,42.8,93.45,14.67,4.6
Severo-Kuril'sk,100,RU,1603508281,87,50.68,156.12,6.34,17.08
Puerto Ayora,40,EC,1603508330,93,-0.74,-90.35,20.56,1.34
Kalakamati,4,BW,1603508330,50,-20.59,27.31,19.2,3.19
Almaznyy,40,RU,1603508330,93,48.04,40.05,14.0,5.0
Lebu,100,CL,1603508330,85,-37.62,-73.65,10.05,2.42
Oruzgan,0,AF,1603508330,50,32.83,66.0,6.53,2.86
Forsytheganj,100,BY,1603508331,96,52.63,29.73,9.04,1.83
De-Kastri,96,RU,1603508331,79,51.47,140.78,8.46,2.9
Brae,64,GB,1603508331,76,60.4,-1.35,9.0,5.1
Bambous Virieux,40,MU,1603508290,69,-20.34,57.76,23.33,4.6
San Cristobal,90,VE,1603508332,84,7.77,-72.22,19.17,0.61
St. George's,40,GD,1603508332,83,12.06,-61.75,27.0,12.9
Monte Alto,100,BR,1603508039,91,-21.26,-48.5,20.51,3.43
Comendador,99,DO,1603508332,81,18.88,-71.7,22.08,2.65
Zhoucun,0,CN,1603508332,23,36.82,117.82,18.89,1.38
Dekar,0,BW,1603508333,30,-21.53,21.93,20.45,2.82
Karasjok,100,NO,1603508333,93,69.47,25.51,3.0,13.9
Kilinochchi,0,LK,1603508333,64,9.4,80.4,29.87,4.82
Karpathos,1,GR,1603508333,78,35.51,27.21,22.0,7.2
Praia,40,CV,1603508333,78,14.92,-23.51,26.0,7.7
Hithadhoo,28,MV,1603508333,75,-0.6,73.08,28.36,4.56
Cabras,52,IT,1603508334,90,39.93,8.53,15.56,4.02
Marsh Harbour,3,BS,1603508297,77,26.54,-77.06,26.28,6.73
Lata,30,PT,1603508334,89,40.16,-8.33,12.22,0.45
Sola,85,VU,1603508334,81,-13.88,167.55,26.7,8.38
Thompson,75,CA,1603508334,79,55.74,-97.86,-6.0,2.6
Mehamn,100,NO,1603508335,92,71.04,27.85,2.54,11.1
Saldanha,19,ZA,1603508312,87,-33.01,17.94,15.0,2.1
Sedro-Woolley,90,US,1603508335,93,48.5,-122.24,5.0,2.6
Mandalgovi,100,MN,1603508335,45,45.76,106.27,7.07,3.64
Penzance,100,GB,1603508336,82,50.12,-5.54,13.0,11.3
Tomatlán,35,MX,1603508336,94,19.93,-105.25,25.29,0.48
Floriano,44,BR,1603508336,54,-6.77,-43.02,26.52,0.75
Cortez,1,US,1603508182,42,37.35,-108.59,9.0,3.1
Nyurba,1,RU,1603508337,90,63.28,118.33,-2.63,2.88
Mogadishu,63,SO,1603508274,84,2.04,45.34,26.67,7.64
Dolores,62,AR,1603508337,98,-36.31,-57.68,14.36,2.46
Sumbe,93,AO,1603508337,86,-11.21,13.84,23.67,2.42
Shagonar,100,RU,1603508337,69,51.53,92.8,4.74,1.6
Egvekinot,9,RU,1603508337,95,66.32,-179.17,-5.35,3.11
Nizhniy Ufaley,100,RU,1603508338,97,55.92,59.98,-3.27,3.34
Ancud,90,CL,1603508318,93,-41.87,-73.82,10.56,3.6
Westport,90,US,1603508338,93,41.14,-73.36,17.0,2.6
Barrow,90,US,1603508105,92,71.29,-156.79,-2.0,4.6
Nikolskoye,75,RU,1603508339,88,59.7,30.79,2.78,3.0
Wanning,100,CN,1603508339,83,18.8,110.4,20.25,9.2
Saint Paul Harbor,90,US,1603508339,93,57.79,-152.41,8.0,7.7
Klaksvík,100,FO,1603508339,93,62.23,-6.59,7.0,7.7
Harper,91,LR,1603508340,90,4.38,-7.72,24.71,2.42
Waynesboro,1,US,1603508340,82,38.07,-78.89,18.0,1.57
Chauk,82,MM,1603508340,76,20.88,94.82,27.77,7.75
Saint-Pierre,40,RE,1603508340,73,-21.34,55.48,23.0,3.6
Chibuto,1,MZ,1603508340,96,-24.69,33.53,17.58,1.62
Ayan,100,RU,1603508341,91,56.45,138.17,3.52,9.41
Quatre Cocos,40,MU,1603508341,69,-20.21,57.76,23.33,4.6
Lompoc,1,US,1603508091,77,34.64,-120.46,17.0,1.5
Coyhaique,100,CL,1603508341,87,-45.58,-72.07,9.0,2.1
Kavaratti,90,IN,1603508292,77,10.57,72.64,26.98,5.34
Salta,40,AR,1603508342,64,-24.79,-65.41,23.0,3.1
Hilo,1,US,1603508342,66,19.73,-155.09,29.0,6.7
San Patricio,40,US,1603508342,100,28.02,-97.52,26.0,3.1
Lomonosov,75,RU,1603508343,79,59.91,29.77,2.78,3.0
Micheweni,85,TZ,1603508343,81,-4.97,39.83,26.07,4.35
Båtsfjord,100,NO,1603508343,91,70.63,29.72,2.23,12.01
Carbonia,40,IT,1603508343,82,39.17,8.52,20.0,3.1
Ostrovnoy,100,RU,1603508343,97,68.05,39.51,-1.48,2.8
Luganville,75,VU,1603508344,70,-15.53,167.17,29.0,4.1
Jasper,90,US,1603508052,70,37.2,-94.35,6.11,6.2
Mossamedes,85,AO,1603508344,83,-15.2,12.15,20.72,3.16
Bonavista,6,CA,1603508295,88,48.65,-53.11,3.33,0.89
Dunhua,0,CN,1603508345,62,43.37,128.24,3.76,9.43
Kaili,23,ID,1603508345,60,-3.46,120.21,28.73,2.1
Bethel,97,US,1603508187,89,41.37,-73.41,15.56,0.45
Littleton,20,US,1603508055,79,39.61,-105.02,-1.67,3.1
Nhulunbuy,40,AU,1603508117,55,-12.23,136.77,31.0,6.2
Sinnamary,37,GF,1603508346,86,5.38,-52.95,26.56,4.14
Port Macquarie,90,AU,1603508192,88,-31.43,152.92,22.0,5.7
Vestmannaeyjar,99,IS,1603508293,75,63.44,-20.27,6.59,6.8
Kieta,99,PG,1603508346,70,-6.22,155.63,28.91,1.31
Stryn,100,NO,1603508347,93,61.9,6.72,1.11,3.46
Kimbe,45,PG,1603508347,64,-5.55,150.14,30.51,2.9
Conway,90,US,1603508211,76,35.09,-92.44,11.11,6.2
Sur,0,OM,1603508348,58,22.57,59.53,26.35,6.4
Derzhavīnsk,0,KZ,1603508348,89,51.1,66.32,-2.67,4.21
Roald,100,NO,1603508348,60,62.58,6.13,6.0,6.2
Kumëny,100,RU,1603508348,99,58.11,49.92,2.7,3.52
Beloha,100,MG,1603508348,76,-25.17,45.05,20.99,4.58
Majene,51,ID,1603508348,64,-3.54,118.97,30.47,2.49
Antalaha,1,MG,1603508349,81,-14.9,50.28,21.6,2.91
Gouyave,40,GD,1603508349,83,12.16,-61.73,27.0,12.9
Butembo,71,CD,1603508106,100,0.15,29.28,13.62,1.04
Benguela,55,AO,1603508349,80,-12.58,13.41,23.62,1.34
Hong Kong,100,HK,1603508260,43,22.29,114.16,24.44,1.79
General Pico,26,AR,1603508350,94,-35.66,-63.76,16.18,3.48
Naze,75,JP,1603508350,53,28.37,129.48,23.0,5.1
Esperance,90,AU,1603508350,67,-33.87,121.9,17.0,3.6
Vinh,68,VN,1603508350,59,18.67,105.67,24.2,2.54
Sisimiut,33,GL,1603508303,89,66.94,-53.67,-5.17,2.63
São Filipe,85,CV,1603508351,78,14.9,-24.5,26.74,4.27
Oranjestad,20,AW,1603508351,79,12.52,-70.03,29.0,8.2
Chul'man,0,RU,1603508351,92,56.85,124.91,-3.26,1.5
Ust-Maya,3,RU,1603508351,91,60.42,134.53,-6.21,0.57
Saint-Augustin,82,CA,1603508351,82,51.23,-58.65,1.55,0.96
Hvide Sande,76,DK,1603508352,77,56.0,8.13,10.56,0.89
Nowa Dęba,0,PL,1603508352,81,50.43,21.75,12.0,3.6
Kyra,27,RU,1603508352,55,49.58,111.98,6.18,0.98
Nuuk,53,GL,1603508353,74,64.18,-51.72,-1.0,3.1
Goderich,100,CA,1603508353,87,43.75,-81.72,8.89,11.27
Beyneu,72,KZ,1603508353,67,45.32,55.2,5.44,4.99
Methóni,0,GR,1603508353,81,36.82,21.7,17.78,5.69
Poyarkovo,17,RU,1603508354,62,49.6,128.68,4.0,9.91
Nago,75,JP,1603508355,53,26.59,127.98,24.0,6.7
Agropoli,100,IT,1603508355,92,40.35,15.0,14.44,0.45
Port Hardy,75,CA,1603508355,100,50.7,-127.42,5.0,1.0
Bengkulu,100,ID,1603508200,80,-3.8,102.27,26.83,1.12
Matagami,90,CA,1603508355,99,49.75,-77.63,0.0,5.1
Nanortalik,97,GL,1603508356,89,60.14,-45.24,1.2,0.19
Drochia,96,MD,1603508356,64,48.03,27.82,11.3,0.15
Vardø,100,NO,1603508356,96,70.37,31.11,2.83,12.63
Grindavik,75,IS,1603508356,80,63.84,-22.43,5.0,5.1
Te Anau,100,NZ,1603508357,64,-45.42,167.72,14.92,4.45
Ajdabiya,0,LY,1603508357,80,30.76,20.23,19.16,3.97
Noumea,2,NC,1603508309,54,-22.28,166.46,30.56,3.1
Vila Franca do Campo,40,PT,1603508357,82,37.72,-25.43,19.0,7.7
Amalāpuram,20,IN,1603508357,94,16.58,82.02,26.0,1.5
Gävle,91,SE,1603508357,98,60.67,17.14,-2.22,2.14
Makkah al Mukarramah,4,SA,1603508358,19,21.43,39.83,24.58,2.13
Comodoro Rivadavia,0,AR,1603508278,62,-45.87,-67.5,14.0,4.03
Lodwar,54,KE,1603508358,44,3.12,35.6,29.45,4.19
Iki-Burul,30,RU,1603508358,81,45.82,44.65,12.0,6.0
Tubualá,75,PA,1603508358,94,9.52,-79.03,26.0,1.5
Hambantota,20,LK,1603508359,83,6.12,81.12,28.0,4.1
Abhā,0,SA,1603508359,28,18.22,42.51,13.0,3.82
Constitución,0,CL,1603508359,78,-35.33,-72.42,9.97,3.59
Corner Brook,40,CA,1603508359,74,48.97,-57.95,6.0,1.5
Aksakovo Municipality,0,BG,1603508359,93,43.25,27.82,15.0,1.5
Shizunai-furukawachō,98,JP,1603508360,68,42.33,142.37,9.81,10.73
Hamilton,91,US,1603508194,86,39.18,-84.53,15.56,1.79
Kiryat Gat,40,IL,1603508360,88,31.61,34.76,20.56,1.5
Galveston,75,US,1603508108,73,29.37,-94.97,23.0,8.7
Mackenzie,40,CA,1603508360,57,55.3,-123.17,-7.0,3.1
Liyang,49,CN,1603508361,64,29.71,118.29,16.11,1.75
Río Hato,100,PA,1603508361,99,8.38,-80.17,26.67,4.45
Pisco,0,PE,1603508247,82,-13.7,-76.22,17.0,6.2
Saint-Joseph,40,RE,1603508361,73,-21.37,55.62,23.0,3.6
Antequera,20,ES,1603508361,82,37.02,-4.56,16.67,4.6
Road Town,0,VG,1603508362,88,18.42,-64.62,28.89,5.36
Carlisle,0,US,1603508362,85,40.2,-77.19,17.78,2.4
Terrace Bay,37,CA,1603508362,90,48.78,-87.1,-0.85,3.78
Jalgaon,67,IN,1603508362,58,21.02,75.57,27.68,0.74
Sungai Penuh,100,ID,1603508303,63,-2.08,101.38,25.31,1.16
Tessalit,0,ML,1603508363,18,20.2,1.01,26.74,5.61
Laas,90,IT,1603508363,100,46.62,10.7,11.11,1.24
Armizonskoye,0,RU,1603508363,90,55.95,67.67,-5.57,3.36
Hobyo,100,SO,1603508363,78,5.35,48.53,26.92,2.37
Dalmatovo,100,RU,1603508363,86,56.26,62.94,-3.29,5.94
Longhua,100,CN,1603508363,47,23.61,114.19,19.68,2.3
Meulaboh,50,ID,1603508364,64,4.14,96.13,29.91,0.3
Katsuura,40,JP,1603508364,48,35.13,140.3,19.0,4.6
Jalpan,35,MX,1603508364,61,21.23,-99.48,21.28,0.36
Mountain Home,75,US,1603508364,23,43.13,-115.69,5.0,1.5
Taquari,87,BR,1603508365,96,-29.8,-51.86,20.0,0.7
Menzel Salem,0,TN,1603508365,77,35.86,8.48,15.0,4.1
Olafsvik,8,IS,1603508366,74,64.89,-23.71,6.08,6.11
Damaturu,31,NG,1603508366,21,11.75,11.96,25.79,3.27
Florø,100,NO,1603508148,81,61.6,5.03,7.0,8.2
Baiyin,10,CN,1603508227,70,36.56,104.21,9.0,1.0
Maracaçumé,14,BR,1603508366,93,-2.04,-45.96,22.89,1.38
Jizan,0,SA,1603508367,78,17.33,42.67,27.0,0.29
Anloga,20,GH,1603508367,88,5.79,0.9,26.0,1.5
Saint-François,90,FR,1603508367,100,46.42,3.91,10.0,2.1
Antofagasta,90,CL,1603508289,82,-23.65,-70.4,14.0,5.7
Grand Gaube,66,MU,1603508367,67,-20.01,57.66,23.89,1.79
Molochnoye,92,RU,1603508368,83,59.29,39.68,7.74,7.11
Kenora,90,CA,1603508368,92,49.82,-94.43,-4.0,2.6
Tocache,34,PE,1603508368,85,-8.18,-76.51,21.48,0.39
Pimentel,95,PE,1603508368,85,-6.84,-79.93,16.88,4.56
Bandar,100,ID,1603508369,59,2.05,99.75,32.03,0.43
Ipixuna,0,BR,1603508369,88,-1.76,-48.8,25.0,4.1
Katherine,40,AU,1603508369,39,-14.47,132.27,37.0,5.7
Souillac,40,MU,1603508287,69,-20.52,57.52,23.0,4.6
Fairbanks,1,US,1603508369,92,64.84,-147.72,-2.78,1.5
Ouadda,99,CF,1603508370,89,8.08,22.4,21.15,0.82
Kavieng,61,PG,1603508370,62,-2.57,150.8,29.34,1.51
Biltine,0,TD,1603508370,18,14.53,20.92,25.17,3.64
Portland,90,US,1603508100,66,45.52,-122.68,13.33,1.5
Talnakh,40,RU,1603508371,91,69.49,88.4,-18.0,2.0
Arkadak,98,RU,1603508371,90,51.93,43.5,11.23,4.06
Belmonte,90,BR,1603508371,94,-15.86,-38.88,22.0,1.0
Sørland,42,NO,1603508319,70,67.67,12.69,6.38,7.16
Ormara,0,PK,1603508371,34,25.21,64.64,24.62,11.06
Flin Flon,100,CA,1603508372,92,54.77,-101.86,-5.2,3.76
Aransas Pass,40,US,1603508372,100,27.91,-97.15,27.0,3.1
Tabou,100,CI,1603508372,90,4.42,-7.35,24.73,2.3
São Miguel do Araguaia,100,BR,1603508373,87,-13.28,-50.16,23.79,1.97
Beringovskiy,100,RU,1603508373,90,63.05,179.32,0.97,9.79
Dunedin,33,NZ,1603508359,70,-45.87,170.5,14.44,9.83
Norman Wells,40,CA,1603508373,100,65.28,-126.83,-3.0,2.1
Huarmey,98,PE,1603508373,81,-10.07,-78.15,17.18,1.56
Alofi,75,NU,1603508374,74,-19.06,-169.92,27.0,8.7
Arlit,0,NE,1603508106,16,18.74,7.39,25.68,5.46
Hualmay,91,PE,1603508374,84,-11.1,-77.61,16.62,1.29
Vredendal,2,ZA,1603508328,92,-31.67,18.5,12.69,0.7
Kirakira,83,SB,1603508374,76,-10.45,161.92,29.0,3.17
Nara,40,JP,1603508375,52,34.69,135.8,19.44,7.7
Erzin,0,TR,1603508372,38,36.96,36.2,22.78,4.47
Nome,90,US,1603508375,86,64.5,-165.41,1.0,5.7
Srednekolymsk,0,RU,1603508375,92,67.45,153.68,-5.17,1.34
Tarrafal,40,CV,1603508376,78,15.28,-23.77,26.0,7.7
Aklavik,5,CA,1603508376,92,68.22,-135.01,-5.0,2.1
Lichuan,66,CN,1603508376,59,30.3,108.85,15.1,2.57
Labuhan,5,ID,1603508316,61,-6.88,112.21,30.71,0.91
Tegul'det,93,RU,1603508376,94,57.31,88.17,-0.14,3.69
Nantucket,90,US,1603508294,88,41.28,-70.1,14.44,2.1
Mount Isa,40,AU,1603508377,41,-20.73,139.5,33.0,4.6
Kruisfontein,42,ZA,1603508377,87,-34.0,24.73,20.56,1.34
Dharān,19,NP,1603508377,68,26.81,87.28,25.1,1.53
Brownsville,1,US,1603508182,83,25.9,-97.5,27.0,2.6
Samarai,63,PG,1603508378,76,-10.62,150.67,28.48,4.06
Zhaotong,95,CN,1603508378,64,27.32,103.72,14.2,1.29
Mitsamiouli,23,KM,1603508378,78,-11.38,43.28,26.05,4.39
Richards Bay,71,ZA,1603508378,88,-28.78,32.04,19.27,4.72
Mindelo,40,CV,1603508378,74,16.89,-24.98,26.0,9.8
Itanhém,41,BR,1603508379,93,-17.17,-40.33,19.67,0.79
La Ronge,90,CA,1603508362,67,55.1,-105.28,-5.0,4.1
Kiunga,100,PG,1603508379,96,-6.12,141.29,23.49,1.24
Xam Nua,89,LA,1603508380,41,20.42,104.04,21.97,1.27
Kyren,22,RU,1603508380,62,51.68,102.14,5.97,0.08
Boyuibe,69,BO,1603508380,59,-20.42,-63.28,24.57,0.57
Show Low,1,US,1603508380,30,34.25,-110.03,15.0,4.1
Pacific Grove,88,US,1603508172,91,36.62,-121.92,15.56,1.12
San Vicente,7,AR,1603508300,88,-26.62,-54.13,18.88,1.57
Siocon,96,PH,1603508381,70,7.71,122.14,28.8,2.77
Karatau,100,KZ,1603508381,77,43.17,70.47,2.28,1.04
Cambridge,90,CA,1603508229,93,43.36,-80.31,11.67,7.7
Ulladulla,90,AU,1603508382,100,-35.35,150.47,19.0,3.6
Sibu,20,MY,1603508382,74,2.3,111.82,29.0,2.1
San Matías,100,BO,1603508382,80,-16.37,-58.4,25.41,3.44
Presidencia Roque Sáenz Peña,2,AR,1603508382,75,-26.79,-60.44,24.44,0.89
Susanville,1,US,1603508382,35,40.42,-120.65,6.0,2.1
Mwingi,10,KE,1603508383,82,-0.93,38.06,17.88,2.17
Kargopol',100,RU,1603508383,93,61.51,38.95,4.71,4.82
Tāndā,0,IN,1603508383,42,26.55,82.65,25.65,2.2
Linxia Chengguanzhen,60,CN,1603508383,53,35.6,103.21,13.71,1.89
Mayo,1,US,1603508302,100,38.89,-76.51,19.0,2.6
Shakawe,60,BW,1603508384,33,-18.37,21.85,19.97,2.72
Charter Township of Clinton,90,US,1603508384,87,42.59,-82.92,10.0,4.6
Lope de Vega,100,PH,1603508384,76,12.3,124.62,28.87,3.33
East London,46,ZA,1603508385,84,-33.02,27.91,20.28,5.07
Huancavelica,96,PE,1603508385,73,-12.77,-74.98,4.83,0.98
Manama,0,BH,1603508122,69,26.22,50.58,26.0,1.0
Pangkalanbuun,77,ID,1603508095,50,-2.68,111.62,34.9,0.29
Korla,100,CN,1603508386,32,41.76,86.15,13.92,1.45
Mildura,90,AU,1603508387,59,-34.2,142.15,17.0,6.2
Katiola,37,CI,1603508387,100,8.13,-5.1,23.0,2.1
Zhigansk,0,RU,1603508387,94,66.77,123.37,-8.44,7.01
Alta Floresta,100,BR,1603508387,97,-9.88,-56.09,21.93,2.04
Pitimbu,75,BR,1603508388,100,-7.47,-34.81,24.0,2.6
Pathein,99,MM,1603508388,80,16.78,94.73,28.6,4.04
Solnechnyy,100,RU,1603508388,93,50.72,136.63,1.48,6.41
Aboisso,45,CI,1603508388,95,5.47,-3.21,23.39,0.58
Paredon,100,MX,1603508389,80,16.03,-93.87,26.51,1.45
Zemio,84,CF,1603508389,96,5.03,25.14,20.25,0.31
Hailey,75,US,1603508389,29,43.52,-114.32,4.0,2.1
Uitenhage,90,ZA,1603508389,94,-33.76,25.4,20.56,7.7
Pizarro,100,CO,1603508389,89,4.95,-77.37,24.98,2.67
Fortuna,1,US,1603508390,62,40.6,-124.16,12.0,3.6
San Miguel de Cozumel,90,MX,1603508390,94,20.51,-86.95,26.67,1.5
Mahibadhoo,82,MV,1603508390,80,3.78,72.97,27.55,4.69
Beitbridge,0,ZW,1603508390,63,-22.22,30.0,20.38,6.55
Cidreira,100,BR,1603508280,92,-30.18,-50.21,19.97,7.46
Maniitsoq,0,GL,1603508391,84,65.42,-52.9,-2.9,2.07
Cherskiy,5,RU,1603508359,94,68.75,161.3,-6.53,2.41
Ouanaminthe,68,HT,1603508391,79,19.55,-71.73,25.21,1.65
Djambala,100,CG,1603508391,97,-2.54,14.75,20.3,2.59
Kodinsk,91,RU,1603508392,83,58.69,99.18,2.21,3.19
Lagunas,87,PE,1603508392,81,-5.23,-75.68,23.24,0.71
Sept-Îles,90,CA,1603508101,100,50.2,-66.38,2.22,7.2
Erāttupetta,20,IN,1603508392,88,9.7,76.78,25.0,1.5
Sitka,75,US,1603508393,29,57.05,-135.33,4.0,4.1
Yarim,16,YE,1603508393,47,14.3,44.38,8.52,1.77
Athabasca,76,CA,1603508374,84,54.72,-113.29,-8.6,1.85
Camacha,20,PT,1603508393,68,33.08,-16.33,19.0,1.5
Mubende,77,UG,1603508394,97,0.56,31.39,15.97,0.97
Formosa do Rio Preto,55,BR,1603508366,75,-11.05,-45.19,23.25,2.06
Tiznit Province,100,MA,1603508394,64,29.58,-9.5,16.7,0.57
Villa Constitución,90,AR,1603508394,88,-33.23,-60.33,22.0,2.6
Anadyr,90,RU,1603508394,100,64.75,177.48,-3.0,1.0
Golden,40,US,1603508149,80,39.76,-105.22,-1.0,0.37
Diffa,23,NE,1603508395,32,13.32,12.61,26.52,4.7
Kamenka,100,RU,1603508395,72,51.32,42.77,12.78,4.4
Ponta Delgada,40,PT,1603508395,82,37.73,-25.67,19.0,7.7
Alghero,0,IT,1603508396,88,40.56,8.32,20.0,3.1
‘Ewa Beach,75,US,1603508396,78,21.32,-158.01,28.0,1.5
West Plains,90,US,1603508396,81,36.73,-91.85,6.11,6.2
Tommot,72,RU,1603508396,93,58.96,126.29,-2.71,0.66
Canchungo,40,GW,1603508397,94,12.07,-16.03,24.0,2.1
Marawi,75,PH,1603508397,90,8.0,124.29,25.56,2.68
Onguday,73,RU,1603508397,70,50.75,86.15,3.25,2.29
Dessie,35,ET,1603508397,79,11.13,39.63,9.08,0.77
Gobabis,21,NA,1603508398,25,-22.45,18.97,20.15,6.24
Baghdad,0,IQ,1603508348,59,33.34,44.4,18.0,3.6
Shitanjing,79,CN,1603508398,47,39.23,106.34,10.66,6.33
Ndélé,100,CF,1603508398,94,8.41,20.65,21.21,0.85
Bellegarde-sur-Valserine,75,FR,1603508399,100,46.11,5.82,11.67,1.0
Barão de Melgaço,0,BR,1603508399,61,-16.19,-55.97,28.0,0.5
Bījār,0,IR,1603508399,74,35.87,47.61,5.57,1.24
Lorengau,52,PG,1603508297,60,-2.02,147.27,29.89,2.73
Wuwei,0,CN,1603508400,42,37.93,102.64,12.22,2.69
Manokwari,17,ID,1603508400,73,-0.87,134.08,28.99,5.81
Santiago del Estero,85,AR,1603508400,79,-27.8,-64.26,22.79,4.75
Oussouye,40,SN,1603508401,94,12.48,-16.55,24.0,2.1
Ingham,75,US,1603508401,81,42.6,-84.38,6.11,5.7
Novikovo,100,RU,1603508402,84,51.15,37.89,11.2,2.75
Wad Medani,15,SD,1603508403,21,14.4,33.52,28.86,2.66
Araouane,0,ML,1603508305,13,18.9,-3.53,29.55,2.29
Havelock,75,US,1603508405,83,34.88,-76.9,21.11,1.5
Troitskoye,98,RU,1603508405,92,52.98,84.68,0.23,4.54
Cirò Marina,91,IT,1603508406,57,39.37,17.13,17.94,0.47
Talara,83,PE,1603508407,85,-4.58,-81.27,17.38,6.0
Lingao,100,CN,1603508407,60,19.91,109.69,23.31,4.78
Cartagena del Chairá,95,CO,1603508409,88,1.33,-74.84,23.2,1.05
Tecpan,40,GT,1603508409,93,14.76,-90.99,18.33,1.5
Hudson Bay,12,CA,1603508409,94,52.85,-102.38,-7.73,2.5
Cayenne,20,GF,1603508410,100,4.93,-52.33,25.0,3.75
Lodja,71,CD,1603508411,97,-3.48,23.43,19.83,0.48
Praia da Vitória,40,PT,1603508412,72,38.73,-27.07,19.44,6.86
Manitouwadge,87,CA,1603508412,95,49.12,-85.84,-4.23,2.23
Shubarshi,100,KZ,1603508413,70,48.59,57.19,3.75,8.28
Cedrales,0,PY,1603508413,65,-25.65,-54.7,26.0,4.1
Arona,20,ES,1603508414,64,28.1,-16.68,20.0,5.7
Weslaco,90,US,1603508414,83,26.16,-97.99,26.11,1.5
Turinskaya Sloboda,34,RU,1603508415,91,57.62,64.39,-4.79,3.62
Kulhudhuffushi,55,MV,1603508415,76,6.62,73.07,27.67,4.72
Lagoa,44,PT,1603508415,82,39.05,-27.98,19.25,10.81
Batemans Bay,100,AU,1603508416,83,-35.72,150.18,19.44,3.13
Umm Kaddadah,2,SD,1603508416,16,13.6,26.69,26.9,7.79
Libreville,40,GA,1603508169,88,0.39,9.45,25.0,2.6
Zaria,99,NG,1603508416,32,11.11,7.72,20.89,1.19
Sobolevo,71,RU,1603508417,94,54.43,31.9,6.93,3.14
Salalah,0,OM,1603508408,32,17.02,54.09,21.0,1.5
Arrecife,0,ES,1603508410,77,28.96,-13.55,18.0,4.6
San Quintín,68,MX,1603508417,80,30.48,-115.95,18.41,3.15
Mackay,94,AU,1603508418,65,-21.15,149.2,28.0,7.2
Haldia,15,IN,1603508418,82,22.06,88.11,26.43,4.2
Tilichiki,0,RU,1603508419,82,60.47,166.1,2.27,3.82
Gao,0,ML,1603508419,16,16.64,1.64,27.29,5.43
Arandis,6,NA,1603508419,80,-22.42,14.97,14.76,2.12
Miraflores,20,MX,1603508420,19,19.22,-98.81,20.0,7.7
Aksarayskiy,100,RU,1603508421,87,46.79,48.01,12.0,3.0
Iberia,75,US,1603508422,100,29.95,-91.75,22.0,3.6
Shizuishan,83,CN,1603508422,38,39.23,106.77,13.69,5.47
Zhuhai,20,CN,1603508422,56,22.28,113.57,24.0,6.7
Sorrento,100,IT,1603508423,88,40.63,14.37,17.22,1.79
Yerbogachën,44,RU,1603508423,95,61.28,108.01,-0.26,3.76
Port Hedland,0,AU,1603508423,54,-20.32,118.57,29.0,7.2
Jumla,0,NP,1603508424,36,29.27,82.18,14.9,0.55
Réo,2,BF,1603508424,30,12.32,-2.47,24.43,0.99
Marzuq,20,YE,1603508425,31,14.4,46.47,14.83,0.87
Nicoya,40,CR,1603508405,94,10.15,-85.45,25.0,2.1
Naliya,0,IN,1603508426,57,23.27,68.83,26.87,2.2
Ihosy,54,MG,1603508426,80,-22.4,46.12,17.68,3.39
Gamba,100,GA,1603508427,86,-2.65,10.0,24.57,3.0
Hailar,0,CN,1603508427,81,49.2,119.7,1.93,2.45
Pirenópolis,88,BR,1603508427,82,-15.85,-48.96,20.92,2.06
Mayor Pablo Lagerenza,57,PY,1603508428,70,-19.93,-60.77,26.3,3.87
Sampit,45,ID,1603508428,65,-2.53,112.95,31.92,0.44
Gisborne,27,NZ,1603508367,61,-38.65,178.0,20.04,2.71
Cockburn Town,100,TC,1603508327,79,21.46,-71.14,28.31,7.26
Poum,2,NC,1603508324,74,-20.23,164.02,25.74,6.6
Cap Malheureux,55,MU,1603508302,69,-19.98,57.61,23.33,0.89
Fujin,100,CN,1603508429,75,47.26,132.03,2.78,10.92
Ellisras,0,ZA,1603508429,59,-23.66,27.74,20.31,2.24
Aripuanã,100,BR,1603508430,94,-9.17,-60.63,22.93,0.77
Bundaberg,40,AU,1603508431,57,-24.85,152.35,27.78,9.3
Khammam,48,IN,1603508215,74,17.25,80.15,26.06,1.99
Namtsy,0,RU,1603508431,67,62.72,129.67,-5.0,3.0
Zhezkazgan,0,KZ,1603508431,86,47.8,67.71,-2.36,2.04
Sa Kaeo,35,TH,1603508426,61,13.75,102.33,25.69,4.18
Verkhoyansk,97,RU,1603508432,90,67.54,133.38,-5.14,4.84
Jaisalmer,0,IN,1603508432,16,26.91,70.92,26.79,4.2
Xining,27,CN,1603508433,43,36.62,101.77,11.28,0.21
Santa Marta,100,CO,1603508318,76,11.24,-74.2,28.33,0.45
Port Hueneme,1,US,1603508434,77,34.15,-119.2,18.33,2.1
Ignacio Zaragoza,1,MX,1603508434,55,28.38,-107.22,12.92,2.48
Merritt,90,CA,1603508434,94,50.11,-120.79,2.0,3.6
Mujiayingzi,0,CN,1603508435,37,42.12,118.78,11.76,2.22
Baykit,99,RU,1603508435,95,61.67,96.37,-1.39,1.59
Natalicio Talavera,20,PY,1603508436,70,-25.63,-56.3,23.43,1.37
Warwick,75,US,1603508436,93,41.7,-71.42,13.89,0.58
Kargalinskaya,0,RU,1603508436,67,43.74,46.48,11.95,1.31
Wellington,27,NZ,1603508370,77,-41.29,174.78,18.33,9.8
Isāgarh,0,IN,1603508437,37,24.83,77.88,26.25,1.98
Betsiamites,90,CA,1603508437,100,48.94,-68.65,10.0,9.3
Aginskoye,0,RU,1603508438,69,51.1,114.53,3.66,1.89
Warrington,100,GB,1603508438,87,53.39,-2.58,8.89,6.7
Katangli,70,RU,1603508438,88,51.71,143.23,9.06,7.18
Grand-Lahou,7,CI,1603508439,90,5.14,-5.02,24.83,1.95
Deputatsky,100,RU,1603508439,92,69.3,139.9,-10.24,1.97
Kutum,1,SD,1603508440,23,14.2,24.67,21.19,5.94
Tarnogskiy Gorodok,100,RU,1603508440,94,60.5,43.58,6.03,3.31
Mayya,0,RU,1603508440,67,61.73,130.28,-5.0,3.0
Russell,1,US,1603508381,93,32.35,-85.2,23.0,1.71
Ginir,18,ET,1603508440,74,7.13,40.7,13.75,2.03
Kindu,98,CD,1603508441,92,-2.95,25.95,19.55,0.35
Namatanai,25,PG,1603508441,60,-3.67,152.43,30.2,1.66
Mapiri,55,BO,1603508441,82,-15.25,-68.17,20.58,0.61
Fomboni,11,KM,1603508441,76,-12.28,43.74,26.59,3.3
Lakes Entrance,100,AU,1603508442,96,-37.88,147.98,12.78,0.89
Biggar,100,GB,1603508381,49,55.62,-3.52,8.89,3.58
Jilin,0,CN,1603508442,57,43.0,126.0,5.84,6.06
Viedma,97,AR,1603508428,84,-40.81,-63.0,15.0,0.89
Rabo de Peixe,40,PT,1603508443,82,37.8,-25.58,19.0,7.7
Sotik Post,45,KE,1603508443,85,-0.78,35.34,13.37,1.33
Carrick-on-Suir,100,IE,1603508444,97,52.35,-7.41,13.33,6.71
Berbera,4,SO,1603508444,65,10.44,45.01,27.11,0.11
Tigil',97,RU,1603508444,67,57.8,158.67,5.42,3.21
Assiniboia,99,CA,1603508444,93,49.63,-105.98,-11.66,1.27
Port Antonio,90,JM,1603508445,94,18.18,-76.46,24.0,2.6
Burns Lake,0,CA,1603508183,89,54.23,-125.75,-9.66,1.65
Khakhea,22,BW,1603508445,27,-24.69,23.49,24.46,3.19
Waipawa,0,NZ,1603508445,77,-41.41,175.52,18.33,9.8
Bansud,100,PH,1603508446,84,12.87,121.46,26.24,1.29
Tautira,75,PF,1603508446,74,-17.73,-149.15,27.0,4.1
Erenhot,0,CN,1603508447,41,43.65,111.98,8.94,3.61
Luwuk,8,ID,1603508448,59,-0.95,122.79,31.14,1.71
Gorgan,0,IR,1603508448,93,36.84,54.43,11.0,0.48
Biak,13,ID,1603508448,64,-0.91,122.88,29.93,1.43
Atasū,7,KZ,1603508448,90,48.68,71.64,-3.47,2.76
